[
  {
    "id": 301,
    "name": "Boracay, Aklan",
    "imageUrl": "https://lh4.googleusercontent.com/proxy/NWNI1MPfM7c1QkND2E2tCeW9OQSQ9HhPGCpv4RN-bD_Z5VUw1E32L3ufXS2TUanyacFl1kYzhN-YVx4U4TRmg1mWZx-zW_zUhIeTABXW1qwsd7fWFw_s67OEuWQv1lNV2kN5l-bLJ9ZmuZ0=w336-h190-n-k-no",
    "price": 724,
    "priceCurrency": "km",
    "lat": 11.969281,
    "lng": 121.8922092
  },
  {
    "id": 302,
    "name": "Chocolate Hills",
    "imageUrl": "https://lh6.googleusercontent.com/proxy/1h3xmHB-hsfEeEetpmuSZPHlQtKu4feFZI00roC1Odfva5Y3Ae8uZS999pxZ-iev0AmnqrUSMpWJRdlC94_CXoMW3rX0cTelZAWM87f0GvzRp4T_e2pisLr7GZSpahE8rynOET_TU2cWItg=w336-h190-n-k-no",
    "price": 1207,
    "priceCurrency": "km",
    "lat": 9.8297077,
    "lng": 124.1309208
  },
  {
    "id": 303,
    "name": "Puerto Prinsesa",
    "imageUrl": "https://lh3.googleusercontent.com/proxy/YxyCxAtkK9sNiqx49xccq3D7nH9mw_q1Pw6HpUOyCDQ40hKHR6OHY79RnE0mVjRbC3cbL4wD5jfcdInKOGiu_Se1Gjjmkc8jobKTPTJAJBL0AcGO9-QxNTD0xN54eWcuJEhbhuLPAkB2SIo=w336-h190-n-k-no",
    "price": 1053,
    "priceCurrency": "km",
    "lat": 9.9151894,
    "lng": 118.1905742
  },
  {
    "id": 304,
    "name": "El Nido, Palawan",
    "imageUrl": "https://lh6.googleusercontent.com/proxy/oWQTl_Mn0op4SlbtSGoLuyeROlG7bc2uEJ1uKiXwPiCFntuRWSj5dduOwcU0cpBR3KsJOgF36UYun4nazlbrj68-E_NdOcU52FckjubR2Dc8d2eG2C6YeEv6pluHxAo83f5gE4RQ9I3I1OQ=w336-h190-n-k-no",
    "price": 903,
    "priceCurrency": "km",
    "lat": 11.210121,
    "lng": 119.1236604
  },
  {
    "id": 145,
    "name": "Baguio, Benguet",
    "imageUrl": "https://lh3.googleusercontent.com/proxy/KchBmrmjFCgPctdzTnG7IDsekH-2PdaRmOgLpia_sZB1qllD5STmF2T4E95kkKsPupmzIVYiVOJyV3QDgMUU4qqW8aJiqBteA8CmKjMV40EH6Hr-20iX8jVAMtIm_8LqfR2Iv823t_3rZro=w336-h190-n-k-no",
    "price": 70,
    "priceCurrency": "km",
    "lat": 16.3995547,
    "lng": 120.5537553
  },
  {
    "id": 148,
    "name": "Mactan, Cebu",
    "imageUrl": "https://lh5.googleusercontent.com/-iZ4qKP180ko/WxqiQP2KRDI/AAAAAAAAANo/MU_rSjBMm9YBLVdCb7ZrnONixW8IzyA7ACLIBGAYYCw/w336-h190-n-k-no/",
    "price": 1137,
    "priceCurrency": "km",
    "lat": 10.2882304,
    "lng": 123.9139659
  },
  {
    "id": 201,
    "name": "Panglao Island",
    "imageUrl": "https://lh3.googleusercontent.com/-FUnG597SBcA/WZdIGvYGfHI/AAAAAAAAMho/CmDLVCXsUQYk18HzHJa_crxBe3N4I3xhwCLIBGAYYCw/w336-h190-n-k-no/",
    "price": 1241,
    "priceCurrency": "km",
    "lat": 9.5949512,
    "lng": 123.7247146
  },
  {
    "id": 205,
    "name": "Tagaytay, Cavite",
    "imageUrl": "https://lh3.googleusercontent.com/proxy/61H6ZhlQnXAdO7yy9o0pnTdiu45PXT3kzGdz4wolkZYsee5a3lv9A_Cj9CahLZ139ibJps11ur7qeJYUaJTUpw_FUNT4sHNab2uIJoXIloIEq7olP8_TJBF8nT_8_UbbXMX6pkfXGNoouNU=w336-h190-n-k-no",
    "price": 351,
    "priceCurrency": "km",
    "lat": 14.11722,
    "lng": 120.8988909
  },
  {
    "id": 210,
    "name": "San Juan Beach",
    "imageUrl": "http://makeupquin.weebly.com/uploads/2/2/9/6/22969694/4852536_orig.jpg",
    "price": 8.4,
    "priceCurrency": "km",
    "lat": 16.6692639,
    "lng": 120.3467473
  },
  {
    "id": 211,
    "name": "Tagbilaran, Bohol",
    "imageUrl": "https://lh5.googleusercontent.com/-zpcEgFHMbp0/WN4KuXdWSJI/AAAAAAAAAfE/cnUdyeUzsK0XvahMuC6KQ5y0w9deAi8xwCLIBGAYYCw/w336-h190-n-k-no/",
    "price": 1223,
    "priceCurrency": "km",
    "lat": 9.6491943,
    "lng": 123.843715
  },
  {
    "id": 221,
    "name": "Vigan, Ilocos Sur",
    "imageUrl": "https://lh6.googleusercontent.com/proxy/B03EWBjOCNKhZoKfpp1flVp19Zyba7AsZhVASeEW59D2EZjay-85n7-OaQHD9ZyqbcVLrDuNenuDBM7oyw6QSi8kO-W2YbR4DtnQXSPaiAWMaFqDh-LQjlL445Vbr0_ToZzAY90pandmimg=w336-h190-n-k-no",
    "price": 130,
    "priceCurrency": "km",
    "lat": 17.5635916,
    "lng": 120.3574219
  },
  {
    "id": 231,
    "name": "Oslob, Cebu",
    "imageUrl": "https://lh4.googleusercontent.com/proxy/hhsUzsSnVg-SxgF_yT6egOysDzHgGtEhdXcj6pBhZskKp7CAHHSE6wTWyMemj2cSEb7JYliXdXlVCMKBfjMnPekRpw-LxckFw7H7fFab6_VAaGUth28EY1PhiAsOr_bdfpBRImB3SYdRSwE=w336-h190-n-k-no",
    "price": 1240,
    "priceCurrency": "km",
    "lat": 9.5203023,
    "lng": 1123.2722446
  },
  {
    "id": 241,
    "name": "Bahay Na Bato Art Gallery",
    "imageUrl": "http://www.tupanggala.com/wp-content/uploads/2017/01/BahaynaBato_02.jpg",
    "price": 22,
    "priceCurrency": "km",
    "lat": 16.8472315,
    "lng": 120.3495169
  },
  {
    "id": 251,
    "name": "Sagada, Mt. Province",
    "imageUrl": "https://lh5.googleusercontent.com/-pO3lSX9tTdU/Wg3HTzJ8KFI/AAAAAAAAGXM/klEdyKszuLcngjwgyZjrTvta6x-l8WGXwCLIBGAYYCw/w336-h190-n-k-no/",
    "price": 163,
    "priceCurrency": "km",
    "lat": 17.1098841,
    "lng": 120.8363875
  },
  {
    "id": 261,
    "name": "Siargao Island",
    "imageUrl": "https://lh5.googleusercontent.com/-eVcMNCzgFGU/WvLoi64HpvI/AAAAAAAAAfI/-Ami4DrNy-s9WaB7Wauq8ihIY-s5aLepgCLIBGAYYCw/w336-h190-n-k-no/",
    "price": 1444,
    "priceCurrency": "km",
    "lat": 9.9044033,
    "lng": 125.9192686
  },
  {
    "id": 271,
    "name": "Intramuros",
    "imageUrl": "https://lh5.googleusercontent.com/-R2L_lu_-J4Y/WAxs4I0OtWI/AAAAAAAANWY/G24emzr6euIuzhAPVbUmELJ-zyp-7_KawCLIB/w336-h190-n-k-no/",
    "price": 281,
    "priceCurrency": "km",
    "lat": 14.589216,
    "lng": 120.9656417
  },
  {
    "id": 281,
    "name": "Mary Ruth Tabafunda's House",
    "imageUrl": "https://github.com/marutab/lutouristspot/blob/master/bahay.JPG?raw=true",
    "price": 0,
    "priceCurrency": "km",
    "lat": 16.690452,
    "lng": 120.3811607
  }
]
