[
  {
    "id": 145,
    "name": "Baluarte, Carlatan",
    "imageUrl": "https://images.summitmedia-digital.com/spotph/images/2017/04/24/la_union_baluarteinside_REV.jpg",
    "price": 50,
    "priceCurrency": "₱",
    "lat": 16.63267,
    "lng": 120.3089022
  },
  {
    "id": 148,
    "name": "Old Lighthouse",
    "imageUrl": "http://makeupquin.weebly.com/uploads/2/2/9/6/22969694/9738221_orig.jpg",
    "price": 50,
    "priceCurrency": "₱",
    "lat": 16.6148268,
    "lng": 120.278264
  },
  {
    "id": 201,
    "name": "Pagoda Hill",
    "imageUrl": "https://www.vigattintourism.com/assets/article_main_photos/optimize/1347700016pJ7RVOLM.jpg",
    "price": 20,
    "priceCurrency": "₱",
    "lat": 16.6141736,
    "lng": 120.3169143
  },
  {
    "id": 205,
    "name": "Botanical Garden",
    "imageUrl": "https://www.vigattintourism.com/assets/images/photo_library/optimize/13445705827WoqnaRi.jpg",
    "price": 50,
    "priceCurrency": "₱",
    "lat": 16.5873334,
    "lng": 120.3637176
  },
  {
    "id": 210,
    "name": "San Juan Beach",
    "imageUrl": "http://makeupquin.weebly.com/uploads/2/2/9/6/22969694/4852536_orig.jpg",
    "price": 20,
    "priceCurrency": "₱",
    "lat": 16.6692639,
    "lng": 120.3467473
  },
  {
    "id": 211,
    "name": "Tuddingan Falls",
    "imageUrl": "http://www.greedypeg.net/p/2015/07/04/16369_1.jpg",
    "price": 100,
    "priceCurrency": "₱",
    "lat": 16.5752027,
    "lng": 120.4152417
  }
  {
    "id": 231,
    "name": "Agoo Plaza",
    "imageUrl": "https://i.ytimg.com/vi/9P9Lv3uXN8s/maxresdefault.jpg",
    "price": 100,
    "priceCurrency": "₱",
    "lat": 16.3223,
    "lng": 120.3647832
  }
]
